{
    "locations": [
        {
            "city_name": "Los Angeles",
            "coordinates": {
                "latitude": 34.0565,
                "longitude": -118.2488
            }
        },
        {
            "city_name": "New York City",
            "coordinates": {
                "latitude": 40.7089,
                "longitude": -74.0100
            }
        },
        {
            "city_name": "Toronto",
            "coordinates": {
                "latitude": 43.6506,
                "longitude": -79.3858
            }
        },
        {
            "city_name": "London",
            "coordinates": {
                "latitude": 42.9817,
                "longitude": -81.2482
            }
        },
        {
            "city_name": "Paris",
            "coordinates": {
                "latitude": 48.8606,
                "longitude": 2.3431
            }
        },
        {
            "city_name": "Berlin",
            "coordinates": {
                "latitude": 52.5160,
                "longitude": 13.3967
            }
        },
         {
            "city_name": "Rome",
            "coordinates": {
                "latitude": 41.8878,
                "longitude": 12.4842
            }
        },
        {
            "city_name": "Dubai",
            "coordinates": {
                "latitude": 25.1924,
                "longitude": 55.2778
            }
        },
        {
            "city_name": "Tokyo",
            "coordinates": {
                "latitude": 35.6776,
                "longitude": 139.7667
            }
        },
        {
            "city_name": "Sydney",
            "coordinates": {
                "latitude": -33.8622,
                "longitude": 151.2093
            }
        }
    ]
}